City_ID,City,Lat,Lng,Max Temp,Humidity,Cloudiness,Wind Speed,Country,Date
0,isafjordur,66.0755,-23.124,265.01,73,1,1.63,IS,1707361799
1,hawaiian paradise park,19.5933,-154.9731,296.41,81,100,2.06,US,1707362025
2,puerto ayacucho,5.6639,-67.6236,297.87,91,89,1.93,VE,1707361758
3,waitangi,-43.9535,-176.5597,292.49,85,100,2.33,NZ,1707361793
4,albany,42.6001,-73.9662,274.67,68,38,0.72,US,1707361948
5,mitu,1.1983,-70.1733,297.45,88,73,0.23,CO,1707362027
6,edinburgh of the seven seas,-37.0676,-12.3116,290.28,67,100,2.88,SH,1707361797
7,atafu village,-8.5421,-172.5159,301.55,79,100,8.48,TK,1707361806
8,kruisfontein,-34.0033,24.7314,290.86,78,4,3.83,ZA,1707362028
9,coahuayana de hidalgo,18.7,-103.6583,295.57,91,21,0.79,MX,1707362028
10,lebu,-37.6167,-73.65,286.96,77,96,8.97,CL,1707361795
11,palmeira das missoes,-27.8994,-53.3136,291.99,94,92,2.48,BR,1707362028
12,kodiak,57.79,-152.4072,273.88,86,100,2.57,US,1707362028
13,georgetown,5.4112,100.3354,305.34,74,20,4.12,MY,1707362029
14,adamstown,-25.066,-130.1015,297.35,75,100,5.52,PN,1707361793
15,noosa heads,-26.3833,153.15,302.1,68,15,8.18,AU,1707361889
16,baidoa,3.1138,43.6498,295.88,78,1,6.17,SO,1707362029
17,chonchi,-42.6128,-73.8092,283.88,96,38,0.9,CL,1707361796
18,puerto natales,-51.7236,-72.4875,281.22,83,78,5.94,CL,1707361797
19,klyuchi,52.2667,79.1667,265.77,87,11,4.38,RU,1707361794
20,anadyr,64.75,177.4833,256.43,85,75,9.0,RU,1707361807
21,puerto ayora,-0.7393,-90.3518,300.13,94,98,2.24,EC,1707362030
22,jumla,29.2747,82.1838,276.06,27,0,1.79,NP,1707362030
23,hammerfest,70.6634,23.6821,261.4,67,100,4.63,NO,1707361793
24,brush,40.2589,-103.6238,278.41,93,100,3.6,US,1707361799
25,xai-xai,-25.0519,33.6442,296.63,83,17,1.12,MZ,1707362031
26,hermanus,-34.4187,19.2345,290.82,80,78,3.76,ZA,1707362031
27,port-aux-francais,-49.35,70.2167,277.53,71,80,12.36,TF,1707362031
28,tolanaro,-25.0319,46.9987,296.05,93,11,1.81,MG,1707362032
29,poronaysk,49.2167,143.1167,260.47,75,95,0.46,RU,1707361755
30,newman,37.3138,-121.0208,281.28,91,76,3.22,US,1707362032
31,bad honningen,50.5167,7.3167,277.81,98,100,0.84,DE,1707362032
32,vorkuta,67.5,64.0,265.37,88,100,4.68,RU,1707361924
33,nelson bay,-32.7167,152.15,298.2,73,100,4.02,AU,1707362032
34,banjar,-8.19,114.9675,304.54,62,34,1.23,ID,1707362033
35,vilyuchinsk,52.9306,158.4028,267.3,79,100,0.86,RU,1707362033
36,ushuaia,-54.8,-68.3,280.96,76,75,3.6,AR,1707362033
37,saipan,15.1355,145.701,302.54,54,0,7.2,MP,1707361958
38,puerto baquerizo moreno,-0.9,-89.6,298.85,82,73,4.85,EC,1707362033
39,gadzhiyevo,69.2551,33.3362,249.37,100,92,3.44,RU,1707362034
40,soham,52.3318,0.3387,276.99,91,100,1.54,GB,1707362034
41,nadi,-17.8,177.4167,301.15,78,75,2.06,FJ,1707362034
42,nuku'alofa,-21.1333,-175.2,304.34,74,20,5.14,TO,1707362034
43,dudinka,69.4058,86.1778,246.3,97,24,1.79,RU,1707362034
44,nacala,-14.5428,40.6728,297.96,92,100,1.85,MZ,1707362034
45,flying fish cove,-10.4217,105.6791,301.97,74,75,3.6,CX,1707362035
46,blackmans bay,-43.0167,147.3167,297.89,56,0,0.45,AU,1707362035
47,gizo,-8.103,156.8419,302.28,76,100,7.16,SB,1707362035
48,utrik,11.2278,169.8474,299.55,82,100,9.39,MH,1707362035
49,codrington,-38.2667,141.9667,293.07,52,0,6.34,AU,1707361797
50,thompson,55.7435,-97.8558,259.0,97,100,2.33,CA,1707362036
51,whitefish,48.4111,-114.3376,273.43,94,100,3.09,US,1707362036
52,bethel,41.3712,-73.414,275.67,65,0,1.54,US,1707362037
53,east london,-33.0153,27.9116,292.45,62,0,4.22,ZA,1707362037
54,grytviken,-54.2811,-36.5092,282.51,64,100,5.27,GS,1707362037
55,jamestown,42.097,-79.2353,275.95,51,0,2.06,US,1707362029
56,buta,2.7858,24.73,292.02,50,6,0.92,CD,1707362038
57,mesquite,32.7668,-96.5992,289.86,57,75,5.66,US,1707362039
58,port mathurin,-19.6833,63.4167,299.98,78,82,8.82,MU,1707362039
59,shimanovsk,52.0,127.7,262.7,65,3,3.77,RU,1707362039
60,calatayud,41.3535,-1.6432,284.95,81,100,7.59,ES,1707362039
61,buenos aires,-34.6132,-58.3772,302.56,79,0,3.6,AR,1707361865
62,stanley,54.868,-1.6985,271.36,95,0,0.0,GB,1707362040
63,sao gabriel da cachoeira,-0.1303,-67.0892,297.29,96,90,0.16,BR,1707362040
64,tura,25.5198,90.2201,291.02,31,0,1.63,IN,1707361819
65,arkhangel'sk,64.5401,40.5433,244.21,76,20,1.0,RU,1707362040
66,isangel,-19.55,169.2667,303.21,79,40,4.12,VU,1707362040
67,kone,-21.0595,164.8658,298.29,86,100,2.39,NC,1707361840
68,south venice,27.0531,-82.4243,288.85,72,40,3.09,US,1707362041
69,port elizabeth,-33.918,25.5701,292.77,82,3,1.79,ZA,1707362041
70,canutama,-6.5339,-64.3831,297.19,96,100,1.08,BR,1707362041
71,geraldton,-28.7667,114.6,314.38,9,0,9.77,AU,1707362041
72,greenland,43.0362,-70.8328,273.07,88,20,0.0,US,1707362042
73,uturoa,-16.7333,-151.4333,301.63,84,77,11.94,PF,1707362042
74,kingston,17.997,-76.7936,296.68,64,20,6.69,JM,1707362004
75,praia da vitoria,38.7333,-27.0667,289.13,87,48,9.09,PT,1707362043
76,talnakh,69.4865,88.3972,247.55,89,28,1.94,RU,1707362043
77,qaqortoq,60.7167,-46.0333,266.32,78,100,2.12,GL,1707361808
78,les cayes,18.2,-73.75,293.31,65,0,3.87,HT,1707362045
79,nejo,9.5,35.5,290.26,46,90,1.36,ET,1707362045
80,broken hill,-31.95,141.4333,302.98,25,44,7.06,AU,1707362045
81,faya-largeau,17.9257,19.1043,287.63,30,30,6.22,TD,1707362045
82,mahina,-17.5065,-149.489,302.02,89,75,7.2,PF,1707362046
83,olonkinbyen,70.9221,-8.7187,270.32,56,91,5.75,SJ,1707361798
84,puyang chengguanzhen,35.7028,115.0053,277.11,64,58,3.33,CN,1707362046
85,chimore,-16.9833,-65.1333,296.13,99,100,0.93,BO,1707362046
86,sitka,57.0531,-135.33,275.09,75,40,2.06,US,1707362047
87,howrah,22.5892,88.3103,293.15,56,2,2.57,IN,1707362047
88,keflavik,64.0049,-22.5624,269.39,68,0,7.2,IS,1707362048
89,minas de marcona,-15.2119,-75.1103,292.76,93,100,3.33,PE,1707362048
90,oromocto,45.8351,-66.4792,267.43,92,73,0.89,CA,1707362048
91,itaituba,-4.2761,-55.9836,296.91,99,99,0.54,BR,1707361802
92,nogliki,51.8333,143.1667,257.23,85,77,2.24,RU,1707362048
93,fort mcmurray,56.7268,-111.381,264.51,92,46,1.16,CA,1707361798
94,ruston,32.5232,-92.6379,287.92,58,0,3.6,US,1707361974
95,kertih,4.5141,103.4483,302.15,69,38,3.43,MY,1707362049
96,jayapura,-2.5333,140.7,303.81,67,88,4.33,ID,1707362049
97,avarua,-21.2078,-159.775,301.18,74,20,7.72,CK,1707362050
98,kununurra,-15.7667,128.7333,306.14,52,40,7.72,AU,1707362050
99,fortaleza,-3.7227,-38.5247,302.22,79,40,3.6,BR,1707362013
100,ungsang-nodongjagu,42.3578,130.4622,272.3,31,0,3.77,KP,1707362050
101,wailua homesteads,22.0669,-159.378,299.39,72,100,6.69,US,1707362050
102,porto novo,6.4965,2.6036,296.65,57,8,0.19,BJ,1707362013
103,aoulef,26.9667,1.0833,288.03,25,44,4.37,DZ,1707362051
104,edson,53.5835,-116.4356,267.21,93,100,2.06,CA,1707362051
105,dikhil,11.5,42.1667,294.38,72,48,5.45,DJ,1707362051
106,ust-nera,64.5667,143.2,246.95,96,100,1.03,RU,1707361801
107,nova sintra,14.8667,-24.7167,294.37,74,0,4.67,CV,1707362052
108,kuta,-8.7233,115.1723,302.12,83,20,4.12,ID,1707362052
109,obihiro,42.9172,143.2044,266.82,78,26,1.33,JP,1707362052
110,mil'kovo,55.6078,37.7956,260.23,94,98,4.85,RU,1707362052
111,tiksi,71.6872,128.8694,252.48,99,100,2.29,RU,1707362053
112,cestos city,5.46,-9.5828,299.59,87,16,2.16,LR,1707362053
113,whistler,50.1164,-122.9695,275.68,83,95,0.38,CA,1707362053
114,metlili chaamba,32.2667,3.6333,284.1,34,0,2.45,DZ,1707362053
115,inda silase,14.1031,38.2829,289.21,52,90,1.12,ET,1707362053
116,colonia,50.9333,6.95,278.12,91,100,2.06,DE,1707361808
117,ulladulla,-35.35,150.4667,295.12,51,64,3.91,AU,1707362054
118,rongelap,11.1635,166.8941,299.56,75,100,9.32,MH,1707362054
119,ilulissat,69.2167,-51.1,261.16,67,100,7.72,GL,1707362054
120,quibala,-10.7337,14.98,290.84,96,100,0.39,AO,1707362054
121,egilsstadir,65.2653,-14.3948,261.49,95,89,2.46,IS,1707362055
122,constantia,44.1833,28.65,281.53,74,100,3.84,RO,1707362046
123,longyearbyen,78.2186,15.6401,265.06,73,40,6.69,SJ,1707362055
124,zyrya,40.3661,50.2917,282.2,68,4,14.18,AZ,1707362055
125,kolokani,13.5728,-8.0339,294.34,13,35,4.52,ML,1707362056
126,lihue,21.9789,-159.3672,299.73,72,100,6.69,US,1707362056
127,horsham,51.064,-0.3272,278.95,85,75,2.57,GB,1707362056
128,margaret river,-33.95,115.0667,299.88,40,0,2.11,AU,1707362056
129,tayu,-6.5397,111.0518,302.89,65,51,0.8,ID,1707362056
130,bonthe,7.5264,-12.505,297.9,93,16,1.47,SL,1707361823
131,hofors,60.5457,16.2867,264.25,98,45,1.06,SE,1707362057
132,ozimek,50.6794,18.2137,274.46,87,100,0.96,PL,1707362057
133,suhbaatar,50.2314,106.2078,251.41,95,90,1.79,MN,1707362057
134,afaahiti,-17.75,-149.2833,301.08,88,100,14.82,PF,1707362058
135,arti,56.4234,58.5328,251.0,100,96,1.68,RU,1707362058
136,susuman,62.7833,148.1667,244.95,98,97,0.59,RU,1707362058
137,inongo,-1.95,18.2667,297.07,83,99,1.41,CD,1707362059
138,touros,-5.1989,-35.4608,299.9,81,41,4.66,BR,1707362059
139,matola,-25.9622,32.4589,298.63,78,100,3.04,MZ,1707362059
140,corner brook,48.9667,-57.9484,259.65,99,83,1.1,CA,1707361813
141,den burg,53.0542,4.7972,274.8,92,100,1.54,NL,1707362062
142,badger,64.8,-147.5333,255.36,81,40,1.54,US,1707362062
143,garbahaarrey,3.3289,42.2209,298.89,69,4,3.59,SO,1707362062
144,prince rupert,54.3161,-130.3201,274.15,75,55,1.59,CA,1707362062
145,kavaratti,10.5669,72.642,301.01,73,100,2.41,IN,1707362063
146,vavatenina,-17.4667,49.2,296.82,99,99,0.66,MG,1707362063
147,kapuskasing,49.4169,-82.4331,272.97,99,100,0.82,CA,1707362063
148,yellowknife,62.456,-114.3525,256.24,84,97,3.58,CA,1707362063
149,ancud,-41.8697,-73.8203,284.06,81,92,3.33,CL,1707361835
150,siracusa,37.0881,15.2792,284.15,64,14,3.03,IT,1707362064
151,la'ie,21.6477,-157.9253,300.13,70,7,4.47,US,1707362064
152,west island,-12.1568,96.8225,299.14,94,75,4.63,CC,1707362064
153,hadibu,12.65,54.0333,298.13,69,100,5.4,YE,1707362065
154,hamilton,39.1834,-84.5333,283.5,52,0,3.6,US,1707361812
155,ola,59.5833,151.2833,255.16,78,14,2.26,RU,1707362065
156,taunggyi,20.7833,97.0333,294.76,37,0,1.23,MM,1707362065
157,nuuk,64.1835,-51.7216,264.49,73,100,7.72,GL,1707362003
158,greenville,35.6127,-77.3663,276.55,86,0,0.45,US,1707362065
159,bolu,40.6667,31.5833,278.9,68,100,1.96,TR,1707362066
160,nanao,37.05,136.9667,279.44,89,99,1.21,JP,1707362066
161,stephenville,32.2207,-98.2023,288.84,74,0,6.17,US,1707362066
162,ribeira grande,38.5167,-28.7,289.69,86,50,10.73,PT,1707362066
163,bilibino,68.0546,166.4372,238.4,100,98,0.38,RU,1707362066
164,kroya,-7.6331,109.2461,302.45,67,18,1.18,ID,1707362067
165,iqaluit,63.7506,-68.5145,241.34,98,46,1.35,CA,1707362067
166,kayangel,8.0823,134.7173,300.66,69,95,7.1,PW,1707362067
167,punta arenas,-53.15,-70.9167,282.21,66,0,13.38,CL,1707362067
168,likasi,-10.9814,26.7333,290.19,97,98,0.97,CD,1707362067
169,college,64.8569,-147.8028,255.41,73,40,1.54,US,1707361796
170,bredasdorp,-34.5322,20.0403,291.24,77,58,2.82,ZA,1707362069
171,spencer,43.1414,-95.1444,283.21,65,75,8.75,US,1707361844
172,san julian,21.0167,-102.1667,289.71,24,80,2.38,MX,1707362069
173,afgooye,2.1381,45.1212,298.01,83,19,6.9,SO,1707362072
174,xining,36.6167,101.7667,266.6,70,33,0.95,CN,1707362072
175,san patricio,28.017,-97.5169,294.12,81,92,5.73,US,1707362072
176,cajamarca,-7.1638,-78.5003,286.92,96,90,0.45,PE,1707362072
177,petropavlovsk-kamchatsky,53.0452,158.6483,266.48,80,75,2.0,RU,1707362072
178,kenai,60.5544,-151.2583,270.2,93,0,6.17,US,1707362018
179,harstad,68.799,16.5293,268.79,92,48,7.15,NO,1707362073
180,aioun,16.6614,-9.6149,294.71,9,100,4.95,MR,1707362073
181,morehead city,34.7229,-76.726,278.73,84,0,3.09,US,1707362037
182,lae,-6.7221,146.9847,304.51,62,100,2.32,PG,1707362073
183,enewetak,11.3474,162.3373,299.8,80,100,8.69,MH,1707362074
184,nar'yan-mar,67.6713,53.087,255.99,96,100,5.81,RU,1707361811
185,kamensk-ural'skiy,56.4185,61.9329,261.44,98,95,2.44,RU,1707362074
186,horta,38.5333,-28.6333,289.27,86,58,10.73,PT,1707362074
187,namibe,-15.1961,12.1522,298.31,77,99,3.78,AO,1707361821
188,nakasongola,1.3089,32.4564,293.75,64,9,1.66,UG,1707362074
189,fasa,28.9383,53.6482,270.73,59,0,2.06,IR,1707362075
190,chistopol',55.3631,50.6424,264.02,94,100,4.65,RU,1707362075
191,alice springs,-23.7,133.8833,304.94,13,12,8.23,AU,1707362075
192,yemel'yanovo,56.1681,92.6767,256.6,85,99,0.0,RU,1707362075
193,barra de santo antonio,-9.4047,-35.5072,298.75,83,72,3.89,BR,1707362076
194,auburn,47.3073,-122.2284,281.05,89,100,3.09,US,1707362076
195,udachny,66.4167,112.4,246.73,75,100,1.21,RU,1707361823
196,invercargill,-46.4,168.35,287.05,80,68,8.94,NZ,1707361799
197,bada,51.392,109.8717,262.1,78,65,1.44,RU,1707362076
198,rawson,-43.3002,-65.1023,293.85,29,88,4.88,AR,1707361845
199,qarauyl,48.9451,79.255,269.45,82,81,7.92,KZ,1707362077
200,arraial do cabo,-22.9661,-42.0278,298.76,88,100,2.66,BR,1707362077
201,charlottetown,46.2352,-63.1267,268.4,86,64,2.06,CA,1707362077
202,palikir - national government center,6.9248,158.1611,304.56,70,100,5.14,FM,1707362077
203,ha'il,27.5219,41.6907,278.16,52,0,2.06,SA,1707362077
204,choibalsan,48.0667,114.5,257.27,81,82,2.9,MN,1707362078
205,laguna,38.421,-121.4238,282.14,92,100,4.12,US,1707362078
206,brokopondo,4.75,-55.1667,298.56,78,29,5.5,SR,1707362078
207,vorgashor,67.5833,63.95,266.04,87,100,5.52,RU,1707361811
208,st. john's,47.5649,-52.7093,271.36,91,100,8.23,CA,1707361855
209,igarka,67.4667,86.5833,252.72,99,96,2.62,RU,1707362079
210,chinde,26.8418,88.0763,279.32,56,0,2.02,NP,1707362079
211,hithadhoo,-0.6,73.0833,300.63,77,92,3.77,MV,1707361840
212,camabatela,-8.1881,15.375,290.45,88,100,1.11,AO,1707362079
213,langepas,61.2544,75.2124,266.91,95,100,6.94,RU,1707362079
214,barah,13.7,30.3667,289.12,22,97,4.25,SD,1707362080
215,benguela,-12.5763,13.4055,300.11,79,100,1.06,AO,1707362080
216,morsi,21.3392,78.0131,294.16,44,16,2.87,IN,1707362080
217,port blair,11.6667,92.75,300.41,62,35,3.26,IN,1707361796
218,iskateley,67.6803,53.1512,255.94,96,100,5.81,RU,1707361817
219,tinogasta,-28.0632,-67.5649,299.04,51,100,5.1,AR,1707362081
220,northam,51.0333,-4.2167,284.63,95,100,8.09,GB,1707362081
221,funafuti,-8.5243,179.1942,301.15,83,75,10.29,TV,1707362081
222,lompoc,34.6391,-120.4579,284.14,75,100,7.15,US,1707362081
223,westport,41.1415,-73.3579,276.37,73,40,1.79,US,1707361792
224,aykhal,66.0,111.5,249.2,99,100,1.83,RU,1707362082
225,papatowai,-46.5619,169.4708,287.53,68,24,8.68,NZ,1707362082
226,qandala,11.472,49.8728,297.61,77,87,2.68,SO,1707362082
227,tazacorte,28.629,-17.9293,292.68,21,0,3.58,ES,1707362082
228,shenjiamen,29.9576,122.298,277.51,70,100,7.34,CN,1707362083
229,neryungri,56.6709,124.6491,256.22,85,100,3.7,RU,1707362083
230,defuniak springs,30.721,-86.1152,283.35,57,0,0.0,US,1707362083
231,taroa,8.7058,171.2275,300.34,79,97,8.14,MH,1707362083
232,sangin,32.0728,64.8359,280.18,35,0,3.54,AF,1707362084
233,holualoa,19.6228,-155.9522,297.06,77,40,2.57,US,1707362084
234,rio claro,-22.4114,-47.5614,293.27,91,89,2.15,BR,1707362084
235,andapa,-14.65,49.65,294.54,98,100,0.92,MG,1707362084
236,cabo san lucas,22.8909,-109.9124,295.1,64,20,3.09,MX,1707361828
237,tralee,52.2704,-9.7026,278.77,92,100,7.98,IE,1707362084
238,hami,42.8,93.45,270.59,58,2,2.05,CN,1707362085
239,saldanha,-33.0117,17.9442,290.18,85,15,4.2,ZA,1707362085
240,emerald,-23.5333,148.1667,308.31,30,6,7.61,AU,1707362085
241,thunder bay,48.4001,-89.3168,274.85,95,100,3.8,CA,1707362085
242,yadrin,55.9405,46.2062,260.2,97,96,1.86,RU,1707362086
243,bacalar,18.6667,-88.3833,291.57,78,0,1.72,MX,1707362086
244,sechura,-5.5569,-80.8222,300.26,72,56,5.55,PE,1707361801
245,kaduy,59.2,37.15,250.19,97,99,2.69,RU,1707362086
246,mili,6.0815,171.735,301.01,79,44,9.58,MH,1707362086
247,molina,-35.1167,-71.2833,299.0,47,0,3.09,CL,1707362087
248,bel ombre,-4.6167,55.4167,300.06,83,20,5.14,SC,1707362087
249,pawai,24.2667,80.1667,288.02,37,100,3.16,IN,1707362087
250,enriquillo,17.9,-71.2333,295.54,62,26,1.43,DO,1707362087
251,la rinconada,37.4873,-5.9826,285.96,96,100,2.06,ES,1707362088
252,kashgar,39.4547,75.9797,268.71,74,20,3.0,CN,1707362088
253,huarmey,-10.0681,-78.1522,298.19,82,69,2.97,PE,1707362088
254,al bayda',32.7627,21.7551,282.41,54,93,3.96,LY,1707362088
255,agat village,13.3886,144.6585,304.67,62,20,7.72,GU,1707362088
256,lagos de moreno,21.35,-101.9167,290.33,21,65,1.48,MX,1707361886
257,nahrin,36.0649,69.1334,277.38,37,2,3.36,AF,1707362089
258,timbuktu,16.7735,-3.0074,292.53,12,90,4.07,ML,1707362089
259,nongstoin,25.5167,91.2667,285.07,36,0,2.33,IN,1707362090
260,vikhorevka,56.1201,101.1636,259.92,91,71,0.82,RU,1707362090
261,queenstown,-31.8976,26.8753,286.08,90,61,1.43,ZA,1707362090
262,sao raimundo nonato,-9.0153,-42.6994,297.43,69,99,0.69,BR,1707361844
263,san matias,-16.3667,-58.4,299.92,68,63,1.32,BO,1707361883
264,bellbrook,39.6356,-84.0708,282.5,57,0,3.09,US,1707361846
265,piton saint-leu,-21.2196,55.3151,297.21,73,100,2.06,RE,1707362091
266,port hedland,-20.3167,118.5667,313.18,14,2,5.66,AU,1707361793
267,kapa'a,22.0752,-159.319,300.14,72,100,6.69,US,1707362091
268,govardhan,27.5,77.4667,284.62,43,3,5.33,IN,1707362092
269,nemuro,43.3236,145.575,270.25,75,73,3.93,JP,1707362092
270,saint helena,-15.95,-5.7,293.97,82,79,6.37,SH,1707362092
271,guerrero negro,27.9769,-114.0611,288.55,63,3,4.92,MX,1707362092
272,collie,-33.3667,116.15,309.05,11,0,2.48,AU,1707362092
273,sangmelima,2.9333,11.9833,290.82,62,12,1.02,CM,1707362093
274,el calafate,-50.3408,-72.2768,280.75,86,53,5.23,AR,1707362093
275,cumbal,0.9088,-77.7915,282.21,93,93,1.59,CO,1707362093
276,alofi,-19.0595,-169.9187,304.09,66,75,3.6,NU,1707362093
277,kirkwood,38.5834,-90.4068,284.2,67,100,4.63,US,1707362093
278,mana,5.6592,-53.7767,298.99,77,80,4.57,GF,1707362094
279,neon karlovasion,37.7903,26.7044,290.88,84,100,7.43,GR,1707362094
280,lospalos,-8.5186,127.0025,303.3,57,97,1.1,TL,1707362094
281,chengde,40.9725,117.9361,269.74,30,86,1.71,CN,1707362094
282,manggar,-2.8833,108.2667,302.05,71,100,2.86,ID,1707362095
283,turpan,42.9333,89.1667,276.21,41,65,0.41,CN,1707362095
284,minab,27.1467,57.0801,290.02,67,3,0.08,IR,1707362095
285,pizarro,4.9533,-77.366,299.23,88,33,2.85,CO,1707362095
286,santa ana de yacuma,-13.75,-65.4333,297.6,87,35,3.14,BO,1707361812
287,new plymouth,-39.0667,174.0833,297.49,84,92,6.18,NZ,1707362095
288,kuusamo,65.9667,29.1833,245.17,76,100,0.51,FI,1707362096
289,kattivakkam,13.2167,80.3167,298.21,77,100,1.97,IN,1707362096
290,tabas,33.5959,56.9244,278.27,36,0,2.06,IR,1707362096
291,ciudad bolivar,8.1222,-63.5497,302.23,65,100,3.81,VE,1707362096
292,whitehorse,60.7161,-135.0538,256.93,73,87,1.54,CA,1707361826
293,onsala,57.4253,12.029,272.43,85,100,2.24,SE,1707362097
294,bombarral,39.2672,-9.158,289.63,78,100,6.36,PT,1707362097
295,adam,22.3756,57.5233,290.19,47,100,0.58,OM,1707362097
296,aasiaat,68.7098,-52.8699,253.04,97,100,0.99,GL,1707362097
297,plastun,44.7561,136.2939,268.6,46,0,5.8,RU,1707362097
298,rengasdengklok,-6.1592,107.2981,303.22,65,55,0.48,ID,1707362098
299,kushva,58.2906,59.7592,256.03,100,98,1.25,RU,1707362099
300,tazovsky,67.4667,78.7,265.46,95,100,5.42,RU,1707362099
301,boca suno,-0.7167,-77.1333,295.8,94,51,0.95,EC,1707362099
302,carnarvon,-24.8667,113.6333,305.88,40,0,2.17,AU,1707362099
303,midvagur,62.0511,-7.1939,271.61,80,40,3.6,FO,1707362099
304,tiquipaya,-17.3382,-66.2189,291.55,47,75,4.92,BO,1707362100
305,torrington,41.8007,-73.1212,274.83,71,19,0.89,US,1707362100
306,mahibadhoo,3.7833,72.9667,300.7,70,84,7.75,MV,1707362100
307,pisco,-13.7,-76.2167,297.18,88,0,5.14,PE,1707362100
308,okha,53.5739,142.9478,256.91,86,98,4.72,RU,1707362100
309,alangalang,11.2061,124.8467,299.6,85,65,1.35,PH,1707362100
310,port alfred,-33.5906,26.891,289.92,89,7,1.34,ZA,1707362101
311,smithers,54.7804,-127.1743,269.07,92,78,0.95,CA,1707362101
312,las heras,-46.5419,-68.9359,284.65,50,1,7.28,AR,1707361835
313,arraias,-12.9288,-46.9437,295.3,84,97,1.06,BR,1707362101
314,carupano,10.6678,-63.2585,298.33,91,56,3.39,VE,1707362102
315,colon,9.3592,-79.9014,296.43,85,63,4.47,PA,1707362102
316,kentville,45.0835,-64.4988,270.21,87,91,2.06,CA,1707362103
317,necochea,-38.5473,-58.7368,292.85,91,67,5.63,AR,1707362103
318,fortuna,40.5982,-124.1573,280.18,94,75,0.0,US,1707361854
319,sao joao da barra,-21.6403,-41.0511,298.11,89,100,1.97,BR,1707362103
320,walker,30.7335,-95.5669,290.57,77,100,5.14,US,1707362104
321,kolonia town,6.964,158.206,305.15,70,100,5.14,FM,1707362104
322,acarau,-2.8856,-40.12,300.09,83,16,5.67,BR,1707362104
323,bamboo flat,11.7,92.7167,300.47,62,39,3.28,IN,1707362105
324,lorengau,-2.0226,147.2712,301.12,80,100,8.78,PG,1707362105
325,tromso,69.6496,18.957,263.16,79,99,5.66,NO,1707361892
326,port macquarie,-31.4333,152.9167,297.53,71,100,6.78,AU,1707361962
327,fort bragg,35.139,-79.006,278.04,70,0,0.45,US,1707362106
328,akureyri,65.6835,-18.0878,264.11,86,75,1.03,IS,1707362106
329,luderitz,-26.6481,15.1594,290.93,74,92,4.77,NA,1707362106
330,baikunthpur,23.25,82.55,289.34,32,25,2.03,IN,1707362106
331,chui,-33.6971,-53.4616,294.62,90,54,3.48,UY,1707362106
332,kudymkar,59.0173,54.656,263.83,96,100,3.54,RU,1707362107
333,brookings,44.3114,-96.7984,281.58,86,100,9.24,US,1707361967
334,karoi,-16.8099,29.6925,291.64,86,97,0.81,ZW,1707362108
335,hirara,24.8,125.2833,293.07,82,75,9.77,JP,1707362108
336,burabay,53.0838,70.3138,266.99,88,100,11.5,KZ,1707362109
337,pasuquin,18.3328,120.6177,302.12,70,20,2.57,PH,1707362109
338,recani,31.2846,-4.2688,284.55,25,74,1.44,MA,1707362109
339,mersa matruh,31.3525,27.2453,288.21,60,6,1.74,EG,1707362109
340,kuanda,56.3161,116.0806,258.77,94,97,0.41,RU,1707362110
341,dickinson,29.4608,-95.0513,292.24,83,100,2.57,US,1707362056
342,gornozavodsk,58.3758,58.3211,259.54,98,97,1.42,RU,1707362110
343,belyy yar,53.6039,91.3903,250.09,77,95,0.0,RU,1707362110
344,selfoss,63.9331,-20.9971,261.6,83,4,4.74,IS,1707362110
345,fale old settlement,-9.3852,-171.2468,301.21,81,100,7.25,TK,1707362111
346,bengkulu,-3.8004,102.2655,302.06,66,67,0.86,ID,1707362111
347,la passe,45.5549,-0.8967,284.81,89,100,5.22,FR,1707361818
348,juneau,58.3019,-134.4197,269.32,95,20,0.0,US,1707362112
349,la reforma,25.0833,-108.05,290.86,74,79,5.03,MX,1707362112
350,soure,-0.7167,-48.5233,299.49,86,13,5.03,BR,1707362113
351,antofagasta,-23.65,-70.4,295.75,80,37,1.93,CL,1707362114
352,troitsko-pechorsk,62.7084,56.1964,264.09,95,71,3.58,RU,1707362115
353,langsa,4.4683,97.9683,303.66,57,38,1.87,ID,1707362115
354,nur-sultan,51.1801,71.446,267.12,86,100,14.0,KZ,1707362115
355,tocopilla,-22.092,-70.1979,296.8,77,0,1.84,CL,1707361914
356,san antonio de pale,-1.4014,5.6325,300.86,79,23,2.42,GQ,1707362116
357,berdigestyakh,62.0989,126.6992,242.75,96,98,2.24,RU,1707362116
358,pangai,-19.8,-174.35,301.1,79,12,4.24,TO,1707362116
359,omdurman,15.6445,32.4777,291.21,21,8,4.81,SD,1707362117
360,nan,18.8333,100.6667,295.16,60,0,1.03,TH,1707362117
361,makhambet,47.6667,51.5833,276.39,88,91,8.63,KZ,1707362117
362,mejit,10.2753,170.8646,299.89,80,77,8.69,MH,1707362117
363,mandera,3.9366,41.867,300.01,63,3,4.88,KE,1707362118
364,tam ky,15.5667,108.4833,298.53,83,63,1.16,VN,1707362118
365,acajutla,13.5928,-89.8275,297.09,52,38,3.22,SV,1707362118
366,imeko,7.45,2.85,297.97,23,10,0.52,NG,1707362118
367,eastham,41.8301,-69.9739,274.79,73,0,1.34,US,1707362119
368,skowhegan,44.7651,-69.7192,273.79,93,100,0.55,US,1707362119
369,basni,27.1667,73.65,286.75,43,37,2.82,IN,1707362119
370,nantucket,41.2835,-70.0995,275.21,80,100,6.83,US,1707361953
371,new norfolk,-42.7826,147.0587,298.55,26,0,0.46,AU,1707362120
372,yaren,-0.5472,166.916,302.4,78,100,8.25,NR,1707362120
373,tongliao,43.6125,122.2653,265.82,69,8,1.96,CN,1707362120
374,villa union,23.2,-106.2333,295.32,78,20,1.54,MX,1707362120
375,little falls,40.869,-74.2082,278.15,68,0,2.06,US,1707362121
376,sosnovo-ozerskoye,52.5249,111.5418,257.37,93,93,2.39,RU,1707362121
377,vilyuysk,63.7553,121.6247,237.59,99,74,1.34,RU,1707362121
378,ras al khaimah city,25.7895,55.9432,291.16,58,4,1.34,AE,1707361951
379,yuzhno-kurilsk,44.0306,145.8556,266.69,70,100,4.34,RU,1707362122
380,rio das ostras,-22.5269,-41.945,296.92,94,100,1.19,BR,1707361931
381,soio,-6.1349,12.3689,299.89,87,100,2.45,AO,1707362123
382,yerofey pavlovich,53.9667,121.9667,262.01,65,92,0.4,RU,1707362123
383,lara,-38.0167,144.4,298.72,59,75,5.14,AU,1707362124
384,happy valley-goose bay,53.3168,-60.3315,261.71,98,100,0.83,CA,1707361845
385,jianshui,23.6363,102.8264,291.55,49,0,3.19,CN,1707362124
386,karaton,-6.3424,106.1045,302.92,63,24,2.54,ID,1707362125
387,nizhniy odes,63.6445,54.856,264.53,90,100,4.24,RU,1707362125
388,lakhipur,26.0299,90.3041,290.39,39,0,1.09,IN,1707362125
389,qamdo,31.1667,97.2333,266.65,52,99,0.69,CN,1707362125
390,kudahuvadhoo,2.6708,72.8944,300.76,70,96,6.49,MV,1707362126
391,kristiansund,63.1115,7.732,269.51,86,100,1.54,NO,1707362126
392,ta`u,-14.2336,-169.5144,301.58,80,100,8.94,AS,1707362126
393,dunedin,-45.8742,170.5036,292.48,42,29,4.92,NZ,1707362126
394,onega,63.9061,38.1404,249.53,99,48,2.14,RU,1707362127
395,labuan,5.2767,115.2417,299.43,86,55,1.76,MY,1707362127
396,great falls,47.5002,-111.3008,269.4,96,100,3.09,US,1707362127
397,el nido,11.1858,119.3956,300.95,73,61,4.89,PH,1707362127
398,crossett,33.1282,-91.9612,288.14,84,43,3.02,US,1707361851
399,xinyang,32.1228,114.0656,276.9,63,35,1.25,CN,1707362128
400,marabba,12.35,32.1833,292.33,20,6,4.74,SD,1707362128
401,saint-philippe,-21.3585,55.7679,298.92,87,88,5.51,RE,1707362128
402,canavieiras,-15.675,-38.9472,298.84,87,90,2.13,BR,1707362128
403,illizi,26.4833,8.4667,282.04,31,2,1.77,DZ,1707362129
404,adamovka,51.5223,59.9396,262.56,83,98,9.19,RU,1707362129
405,mogocha,53.7333,119.7667,260.71,75,25,0.53,RU,1707362129
406,manokwari,-0.8667,134.0833,301.17,76,94,2.49,ID,1707362129
407,severo-yeniseyskiy,60.3725,93.0408,260.69,99,98,1.34,RU,1707362130
408,mount isa,-20.7333,139.5,304.02,45,100,3.6,AU,1707362130
409,charters towers,-20.1,146.2667,307.01,35,34,5.27,AU,1707362130
410,turuntayevo,52.2,107.6167,252.61,85,98,1.08,RU,1707362130
411,thurles,52.6819,-7.8022,277.94,95,100,7.53,IE,1707362132
412,cabedelo,-6.9811,-34.8339,301.52,82,96,3.97,BR,1707362132
413,tsarevo,42.1667,27.85,285.07,82,100,2.74,BG,1707362133
414,nuriootpa,-34.4833,139.0,301.69,22,3,3.16,AU,1707362133
415,mar del plata,-38.0023,-57.5575,295.16,84,0,6.17,AR,1707362133
416,iquique,-20.2208,-70.1431,298.17,81,0,1.35,CL,1707362133
417,qaisumah,28.3112,46.1273,282.13,53,0,1.03,SA,1707362134
418,impfondo,1.6381,18.0667,296.29,45,44,0.68,CG,1707362134
419,yung shue wan,22.2333,114.1167,287.77,87,98,0.45,HK,1707362136
420,beloyarskiy,63.7119,66.6722,269.82,89,100,4.47,RU,1707362138
421,ikwiriri,-7.9562,38.9716,296.93,98,75,0.7,TZ,1707362138
422,jiuquan,39.7432,98.5174,270.98,41,83,1.06,CN,1707362141
423,ingeniero jacobacci,-41.3427,-69.5448,289.65,26,100,4.09,AR,1707362142
424,sena madureira,-9.0656,-68.6569,298.3,85,86,1.18,BR,1707362142
425,kailua-kona,19.6406,-155.9956,299.13,77,40,2.57,US,1707362143
426,mount gambier,-37.8333,140.7667,296.55,38,0,4.37,AU,1707362143
427,kerikeri,-35.2268,173.9474,297.98,60,20,3.68,NZ,1707361846
428,bayanaul,50.7889,75.6956,265.71,81,7,7.9,KZ,1707362143
429,gross-zimmern,49.8758,8.8344,282.42,97,100,1.73,DE,1707362144
430,soufriere,13.8562,-61.0566,299.93,88,40,9.26,LC,1707362144
431,tortoli,39.9256,9.6572,285.05,76,0,2.06,IT,1707362144
432,aguilar de campoo,42.7945,-4.2589,280.64,90,100,8.88,ES,1707362144
433,akko,32.9236,35.0728,286.53,80,0,3.6,IL,1707362144
434,port lincoln,-34.7333,135.8667,293.41,60,5,5.31,AU,1707362146
435,saguenay,48.4168,-71.0657,268.75,85,100,1.03,CA,1707362140
436,zhangye,38.9342,100.4517,270.38,46,4,3.46,CN,1707362146
437,phanom thuan,14.1303,99.6986,303.73,28,10,1.88,TH,1707362146
438,sola,-13.8833,167.55,306.52,62,75,2.57,VU,1707362147
439,marquette,46.5333,-87.6335,275.75,85,100,2.68,US,1707362147
440,zaysan,47.4667,84.8667,266.49,84,100,0.78,KZ,1707362147
441,concepcion del bermejo,-26.5993,-60.9462,302.1,53,50,2.98,AR,1707362148
442,meadow lakes,61.6247,-149.6011,272.94,73,0,2.57,US,1707362148
443,thai binh,20.45,106.3333,288.9,84,100,2.44,VN,1707362148
444,fuerte olimpo,-21.0415,-57.8738,297.28,83,78,1.57,PY,1707362148
445,ingeniero guillermo n. juarez,-23.9,-61.85,301.85,54,98,4.04,AR,1707362149
446,whakatane,-37.9585,176.9854,301.97,78,4,1.79,NZ,1707362149
447,namdrik,5.5994,168.1028,301.13,73,78,9.5,MH,1707362149
448,bikenibeu village,1.3673,173.1241,304.13,74,75,6.17,KI,1707362150
449,guardo,42.7897,-4.8482,280.18,94,100,6.54,ES,1707362150
450,kupang,-10.1667,123.5833,298.47,100,75,1.54,ID,1707362150
451,weno,7.4515,151.8468,304.12,70,75,6.17,FM,1707362151
452,birstein,50.35,9.3,274.96,98,100,0.04,DE,1707362151
453,oranjemund,-28.55,16.4333,290.34,88,23,3.41,NA,1707362151
454,kiunga,-6.1219,141.2906,305.45,51,96,2.41,PG,1707362152
455,dhidhdhoo,6.8833,73.1,300.19,72,98,3.92,MV,1707362152
456,mohammedia,33.7066,-7.3944,286.26,47,38,4.12,MA,1707362152
457,iguape,-24.7081,-47.5553,296.95,92,71,1.73,BR,1707362152
458,rechka-vydrino,51.485,104.8461,261.3,83,27,1.37,RU,1707362153
459,island harbour,50.724,-1.2758,280.63,95,100,5.36,GB,1707362153
460,bayville,40.9106,-73.5621,278.83,73,11,1.44,US,1707362153
461,reggane,26.7158,0.1714,288.85,20,33,4.3,DZ,1707362153
462,puerto santander,8.3636,-72.4063,298.82,96,100,0.82,CO,1707362153
463,san-pedro,4.7485,-6.6363,299.25,82,10,1.73,CI,1707362154
464,north bend,43.4065,-124.2243,281.1,93,100,3.09,US,1707362154
465,najran,17.4924,44.1277,283.51,63,15,1.84,SA,1707362154
466,beroroha,-21.6667,45.1667,295.67,93,5,0.36,MG,1707362154
467,dongcun,36.7767,121.1597,273.8,55,89,3.03,CN,1707362154
468,ilanskiy,56.2358,96.065,257.13,99,92,0.85,RU,1707362154
469,terek,43.4833,44.1361,281.27,52,87,1.32,RU,1707362155
470,pont rouge,48.8833,-72.0825,267.21,98,93,1.19,CA,1707362155
471,sayan,-11.1361,-77.1933,296.77,80,94,1.33,PE,1707362155
472,vila franca do campo,37.7167,-25.4333,291.42,99,89,8.55,PT,1707362155
473,amga,60.8953,131.9608,243.42,95,100,1.16,RU,1707362155
474,port saint john's,-31.6229,29.5448,293.19,80,8,2.19,ZA,1707362156
475,krasavino,60.9614,46.4814,258.67,95,100,3.55,RU,1707362156
476,cromwell,41.5951,-72.6454,275.95,76,20,0.0,US,1707362106
477,crane,31.3974,-102.3501,286.19,47,57,2.54,US,1707362156
478,borogontsy,62.6683,131.1683,238.25,94,72,0.96,RU,1707362156
479,akbarpur,26.4167,82.55,286.33,44,28,5.95,IN,1707362157
480,mermoz boabab,14.7065,-17.4758,300.46,78,1,4.12,SN,1707362157
481,murghob,38.1702,73.9667,250.85,79,6,2.29,TJ,1707362157
482,chilca,-12.5211,-76.7372,297.53,86,10,2.88,PE,1707362157
483,sinnar,13.5691,33.5672,292.69,24,61,4.33,SD,1707362157
484,harrison,30.4091,-89.0436,287.18,75,0,3.09,US,1707362157
485,zanjan,36.6736,48.4787,270.98,74,0,2.06,IR,1707362158
486,las tablas,7.7667,-80.2833,296.58,99,77,7.63,PA,1707362158
487,sinop,41.7711,34.8709,281.4,56,100,3.16,TR,1707362158
488,korhogo,9.45,-5.6333,295.32,17,7,2.75,CI,1707362158
489,malango,-2.9627,119.9001,299.57,65,99,0.86,ID,1707362158
490,tukrah,32.5341,20.5791,286.45,64,35,5.18,LY,1707362159
491,buenaventura,3.8801,-77.0312,298.11,94,90,1.08,CO,1707362159
492,ocean city,39.2776,-74.5746,276.47,86,2,0.77,US,1707362159
493,lys'va,58.1086,57.8053,257.46,98,83,2.04,RU,1707362159
494,nova vicosa,-17.8919,-39.3719,298.85,87,100,2.7,BR,1707362159
495,punta del este,-34.9667,-54.95,299.24,79,0,3.13,UY,1707362063
496,ust'-ilimsk,58.0006,102.6619,262.28,97,100,1.34,RU,1707362160
497,kawalu,-7.3817,108.2082,302.52,60,18,1.46,ID,1707362160
498,dakhla,23.6848,-15.958,293.41,40,0,3.8,EH,1707362160
499,san pedro buenavista,16.0833,-93.1167,290.14,63,0,1.44,MX,1707362160
500,ratnagiri,16.9833,73.3,299.23,43,0,1.76,IN,1707362160
501,barcelos,41.5388,-8.6151,289.23,84,100,8.05,PT,1707362161
502,zhaotong,27.3167,103.7167,273.26,75,100,3.17,CN,1707362161
503,araguaina,-7.1911,-48.2072,296.82,92,99,1.44,BR,1707362161
504,buka,40.8108,69.1986,279.99,67,100,0.52,UZ,1707362162
505,acapulco de juarez,16.8634,-99.8901,299.05,78,0,2.06,MX,1707362086
506,haiku-pauwela,20.9219,-156.3051,298.16,67,20,9.77,US,1707362162
507,ambovombe,-25.1667,46.0833,294.94,84,0,0.48,MG,1707362162
508,ghanzi,-21.5667,21.7833,296.24,59,53,2.94,BW,1707362163
509,tutoia,-2.7619,-42.2744,301.04,81,71,5.94,BR,1707361885
510,hotan,37.0997,79.9269,271.72,53,1,1.1,CN,1707362163
511,magong,23.5654,119.5863,289.14,84,100,14.01,TW,1707362163
512,castillos,-34.1667,-53.8333,294.43,88,30,2.58,UY,1707362164
513,sandnessjoen,66.0217,12.6316,266.44,57,97,3.49,NO,1707362164
514,magadan,59.5667,150.8,255.23,75,12,1.77,RU,1707362164
515,tres lagoas,-20.7511,-51.6783,297.74,71,100,1.63,BR,1707362164
516,coquimbo,-29.9533,-71.3436,292.0,88,100,2.06,CL,1707362165
517,sabang,5.8933,95.3214,300.93,74,63,4.69,ID,1707362165
518,santa elena de uairen,4.6167,-61.1333,294.14,74,23,1.61,VE,1707362165
519,trashi yangtse,27.6116,91.498,279.71,84,94,1.86,BT,1707362165
520,ulsteinvik,62.3432,5.8487,271.22,81,16,3.13,NO,1707362165
521,argo,37.6333,22.7333,283.59,53,100,2.29,GR,1707362166
522,irymple,-34.25,142.1667,303.2,36,0,0.89,AU,1707361941
523,ivdel',60.6911,60.4206,267.61,97,100,2.24,RU,1707362166
524,buala,-8.145,159.5921,303.54,71,100,6.17,SB,1707362166
525,dryden,49.7833,-92.7503,275.1,88,100,5.2,CA,1707361916
526,antonio enes,-16.2325,39.9086,297.93,91,52,2.08,MZ,1707362167
527,shagonar,51.5333,92.8,247.6,96,97,0.79,RU,1707361896
528,saint-pierre,-21.3393,55.4781,298.97,73,100,2.06,RE,1707362167
529,tahoua,14.8888,5.2692,289.0,18,3,4.96,NE,1707362168
530,butia,-30.1197,-51.9622,293.56,98,73,2.06,BR,1707361972
531,kiuruvesi,63.65,26.6167,247.0,100,83,1.23,FI,1707362168
532,preobrazheniye,42.9019,133.9064,270.8,40,0,2.55,RU,1707362168
533,sinabang,2.4803,96.3801,302.34,69,69,1.09,ID,1707362169
534,salinopolis,-0.6136,-47.3561,299.89,84,15,4.49,BR,1707362169
535,hailey,43.5196,-114.3153,271.07,93,75,0.0,US,1707362169
536,khovd,48.0056,91.6419,254.41,89,31,0.57,MN,1707362169
537,inirida,3.8653,-67.9239,297.07,96,72,1.25,CO,1707362170
538,yokadouma,3.5167,15.05,292.39,42,78,0.18,CM,1707362170
539,bol'shoye boldino,55.0059,45.3142,271.44,94,99,7.0,RU,1707362170
540,beledweyne,4.7358,45.2036,297.27,80,9,5.82,SO,1707362170
541,kill devil hills,36.0307,-75.676,279.81,81,100,4.12,US,1707362170
542,chibuto,-24.6867,33.5306,295.21,83,13,1.74,MZ,1707362171
543,inari,68.906,27.0288,250.26,100,97,1.27,FI,1707362171
544,vernon,50.2581,-119.2691,276.82,89,100,0.29,CA,1707361936
545,miracema do tocantins,-9.5618,-48.3967,297.66,87,98,0.49,BR,1707362171
546,raduzhny,62.0961,77.475,265.41,83,100,6.03,RU,1707362172
547,salekhard,66.53,66.6019,268.41,93,100,6.07,RU,1707362172
548,mount pearl,47.5166,-52.7813,270.9,91,100,8.23,CA,1707362106
549,granada,37.25,-3.25,278.87,55,97,1.25,ES,1707361966
550,maun,-19.9833,23.4167,293.64,76,72,1.74,BW,1707362172
551,el granada,37.5027,-122.4694,284.14,74,100,9.26,US,1707362155
552,linfen,36.0889,111.5189,274.54,50,5,1.71,CN,1707362173
553,porbandar,21.6422,69.6093,294.56,57,100,5.26,IN,1707362173
554,ixtapa,20.7,-105.2,298.28,73,40,2.57,MX,1707362173
555,bodo,67.28,14.405,266.45,79,0,8.75,NO,1707362174
556,chitipa,-9.7024,33.2697,289.53,95,92,1.0,MW,1707362174
557,lautoka,-17.6167,177.4667,301.07,78,75,2.06,FJ,1707362174
558,bereznik,62.8551,42.7072,254.21,92,100,4.05,RU,1707362174
559,zmeinogorsk,51.1567,82.195,269.47,94,100,5.99,RU,1707362156
560,tamanrasset,22.785,5.5228,280.1,24,0,2.57,DZ,1707362175
561,slave lake,55.2834,-114.769,268.14,86,100,1.54,CA,1707362175
562,belmonte,-15.8631,-38.8828,299.22,85,96,2.88,BR,1707362175
563,lensk,60.7253,114.9278,249.11,96,62,0.27,RU,1707362176
564,trinidad,-14.8333,-64.9,297.14,90,0,2.59,BO,1707362005
565,archangelos,36.2149,28.1149,288.88,80,100,5.46,GR,1707362176
566,shippensburg,40.0507,-77.5203,276.68,68,25,0.98,US,1707362176
567,upington,-28.4478,21.2561,292.36,42,47,2.06,ZA,1707362176
568,comodoro rivadavia,-45.8667,-67.5,290.07,34,0,12.35,AR,1707362118
569,tommot,58.9564,126.2925,254.26,92,100,1.63,RU,1707362177
570,gorontalo,0.5412,123.0595,305.28,57,99,1.43,ID,1707362177
571,novokruchininskiy,51.7833,113.7667,258.0,78,100,1.26,RU,1707362177
572,howard springs,-12.497,131.047,304.81,78,86,2.36,AU,1707362178
573,smidovich,48.6,133.8167,259.36,85,8,2.28,RU,1707362178
574,kombissiri,12.0656,-1.3375,294.14,16,2,4.28,BF,1707362178
575,wlodawa,51.55,23.55,273.04,82,100,3.94,PL,1707362111
576,mahajanga,-15.7167,46.3167,298.61,88,87,1.56,MG,1707362178
577,carutapera,-1.195,-46.02,299.46,84,9,2.86,BR,1707362179
